민방위대피시설명,민방위대피시설구분,소재지도로명주소,소재지지번주소,위도,경도,민방위대피시설면적,대피가능인원수,개방여부,관리기관명,데이터기준일자
2호선 종합운동장역,2호선 종합운동장역,"서울특별시 송파구 올림픽로 지하 23 (잠실동, 종합운동장역)",,37.51096837,127.0733561,18388,22288,Y,서울특별시 송파구청,2021-09-14
2호선 잠실새내역,2호선 잠실새내역,"서울특별시 송파구 올림픽로 지하 140 (잠실동, 신천역)",,37.51156865,127.0863731,8227,9972,Y,서울특별시 송파구청,2021-09-14
2호선 잠실역,2호선 잠실역,"서울특별시 송파구 올림픽로 지하 265 (잠실동, 잠실역2호선)",,37.51332,127.1003147,4752,5760,Y,서울특별시 송파구청,2021-09-14
잠실성당 지하강의실,잠실성당 지하강의실,"서울특별시 송파구 올림픽로12길 9 (잠실동, 잠실천주교회)",,37.51038157,127.083241,874,1059,Y,서울특별시 송파구청,2021-09-14
잠실종합상가,잠실종합상가,"서울특별시 송파구 백제고분로 157 (잠실동, 반도가구전시장)",,37.50578208,127.0843171,1518,1840,Y,서울특별시 송파구청,2021-09-14
교통회관,교통회관,"서울특별시 송파구 올림픽로 319 (신천동, 새마을 교통회관)",,37.51565091,127.1054668,2340,2836,Y,서울특별시 송파구청,2021-09-14
잠실우성4차아파트 전동 지하,잠실우성4차아파트 전동 지하,"서울특별시 송파구 백제고분로18길 30 (잠실동, 우성아파트)",,37.50269134,127.0821829,7920,9600,Y,서울특별시 송파구청,2021-09-14
한양2차아파트 지하,한양2차아파트 지하,"서울특별시 송파구 가락로 192 (송파동, 2차한양아파트)",,37.50472452,127.1159468,8250,10000,Y,서울특별시 송파구청,2021-09-14
문정1동주민센터,문정1동주민센터,"서울특별시 송파구 동남로 116 (문정동, 문정1동주민센터)",,37.490073,127.1241831,165,200,Y,서울특별시 송파구청,2021-09-14
서울시농수산식품공사 지하주차장,서울시농수산식품공사 지하주차장,"서울특별시 송파구 양재대로 932 (가락동, 가락농수산물시장)",,37.49646652,127.1134552,2785,3375,Y,서울특별시 송파구청,2021-09-14
풍납2동주민센터 지하 전체,풍납2동주민센터 지하 전체,"서울특별시 송파구 토성로 64 (풍납동, 풍납2동주민센터)",,37.52875526,127.1167714,196,237,Y,서울특별시 송파구청,2021-09-14
국민연금관리공단,국민연금관리공단,"서울특별시 송파구 올림픽로35다길 13 (신천동, 국민연금공단)",,37.51572714,127.1007161,541,655,Y,서울특별시 송파구청,2021-09-14
미성아파트 전동 지하,미성아파트 전동 지하,"서울특별시 송파구 오금로32길 10 (송파동, 미성맨션)",,37.50592797,127.1198573,3501,4243,Y,서울특별시 송파구청,2021-09-14
아시아선수촌아파트 동별 지하,아시아선수촌아파트 동별 지하,"서울특별시 송파구 올림픽로4길 15 (잠실동, 아시아선수촌아파트)",,37.50867533,127.074779,8625,10454,Y,서울특별시 송파구청,2021-09-14
우성아파트 전동 지하,우성아파트 전동 지하,서울특별시 송파구 올림픽로4길 42 (잠실동),,37.50832384,127.072028,8625,10454,Y,서울특별시 송파구청,2021-09-14
엠타워 지하주차장,엠타워 지하주차장,"서울특별시 송파구 올림픽로 96 (잠실동, 동신빌딩)",,37.51146419,127.0812153,528,640,Y,서울특별시 송파구청,2021-09-14
삼성생명 지하주차장,삼성생명 지하주차장,서울특별시 송파구 올림픽로 633 (풍납동),,37.538242,127.1228916,568,688,Y,서울특별시 송파구청,2021-09-14
가락삼익아파트 전동 지하,가락삼익아파트 전동 지하,"서울특별시 송파구 오금로 252 (송파동, 가락삼익맨숀)",,37.50557702,127.1211913,9203,11155,Y,서울특별시 송파구청,2021-09-14
송파2동주민센터 지하,송파2동주민센터 지하,"서울특별시 송파구 송이로 32(송파동, 송파2동주민센터)",,37.50231986,127.1167392,211,255,Y,서울특별시 송파구청,2021-09-14
대림아파트 전동 지하,대림아파트 전동 지하,"서울특별시 송파구 송이로 88 (가락동, 가락대림아파트)",,37.4994998,127.1184674,1030,1248,Y,서울특별시 송파구청,2021-09-14
롯데월드 지하주차장,롯데월드 지하주차장,"서울특별시 송파구 올림픽로 240 (잠실동, 롯데월드)",,37.51131078,127.0981404,14341,17383,Y,서울특별시 송파구청,2021-09-14
송파구청,송파구청,"서울특별시 송파구 올림픽로 326 (신천동, 송파구청)",,37.51447565,127.1058587,4425,5363,Y,서울특별시 송파구청,2021-09-14
보화2차아파트,보화2차아파트,"서울특별시 송파구 오금로68길 33 (거여동, 보화아파트)",,37.49032565,127.1488203,920,1115,Y,서울특별시 송파구청,2021-09-14
MBC아카데미,MBC아카데미,"서울특별시 송파구 백제고분로9길 10 (잠실동, MBC아카데미)",,37.50912221,127.0802853,990,1200,Y,서울특별시 송파구청,2021-09-14
삼전동주민센터,삼전동주민센터,"서울특별시 송파구 백제고분로 236 (삼전동, 삼전동주민센터)",,37.50272334,127.0925242,198,240,Y,서울특별시 송파구청,2021-09-14
문정시영아파트 5동 지하,문정시영아파트 5동 지하,"서울특별시 송파구 송이로31길 56 (문정동, 문정시영아파트)",,37.49086325,127.136383,7920,9600,Y,서울특별시 송파구청,2021-09-14
오륜동주민센터 지하,오륜동주민센터 지하,"서울특별시 송파구 양재대로 1232 (방이동, 오륜동주민센터)",,37.5155568,127.1342743,231,280,Y,서울특별시 송파구청,2021-09-14
서경빌딩,서경빌딩,"서울특별시 송파구 올림픽로 114 (잠실동, 서경빌딩)",,37.51139074,127.0831878,2607,3160,Y,서울특별시 송파구청,2021-09-14
잠실본동 현대아파트 지하,잠실본동 현대아파트 지하,"서울특별시 송파구 백제고분로18길 7 (잠실동, 현대아파트)",,37.50427836,127.0854916,3719,4507,Y,서울특별시 송파구청,2021-09-14
연암빌딩,연암빌딩,"서울특별시 송파구 오금로 422 (가락동, 연암빌딩)",,37.49674817,127.1367691,184,223,Y,서울특별시 송파구청,2021-09-14
장지동 현대아파트,장지동 현대아파트,"서울특별시 송파구 송이로34길 26 (문정동, 현대아파트)",,37.48578477,127.130354,713,864,Y,서울특별시 송파구청,2021-09-14
마천1동주민센터 지하,마천1동주민센터 지하,"서울특별시 송파구 마천로 303 (마천동, 마천1동주민센터)",,37.49600417,127.1499488,254,307,Y,서울특별시 송파구청,2021-09-14
영빌딩,영빌딩,서울특별시 송파구 동남로 236 (가락동),,37.49753397,127.1335182,408,494,Y,서울특별시 송파구청,2021-09-14
유니팜코리아 지하주차장,유니팜코리아 지하주차장,"서울특별시 송파구 오금로 420 (가락동, 한라산업개발빌딩)",,37.49699021,127.1362765,862,1044,Y,서울특별시 송파구청,2021-09-14
위너스 빌딩2,위너스 빌딩2,서울특별시 송파구 백제고분로 67 (잠실동),,37.51079178,127.0789479,1584,1920,Y,서울특별시 송파구청,2021-09-14
위너스 빌딩1,위너스 빌딩1,서울특별시 송파구 백제고분로 63 (잠실동),,37.5110477,127.0788848,2880,3490,Y,서울특별시 송파구청,2021-09-14
서일빌딩,서일빌딩,"서울특별시 송파구 올림픽로 102 (잠실동, 서일빌딩)",,37.51142403,127.0819617,2970,3600,Y,서울특별시 송파구청,2021-09-14
올림피아 빌딩 주차장,올림피아 빌딩 주차장,"서울특별시 송파구 백제고분로 75 (잠실동, 올림피아)",,37.50996632,127.0791552,8497,10299,Y,서울특별시 송파구청,2021-09-14
해태그린피아 빌라트,해태그린피아 빌라트,서울특별시 송파구 위례성대로 38 (방이동),,37.515691,127.1164976,2720,3296,Y,서울특별시 송파구청,2021-09-14
해동빌딩,해동빌딩,"서울특별시 송파구 백제고분로50길 12 (방이동, 해동빌딩)",,37.51397597,127.1160154,800,969,Y,서울특별시 송파구청,2021-09-14
아이코리아 지하주차장,아이코리아 지하주차장,"서울특별시 송파구 충민로6길 17 (장지동, 아이코리아)",,37.48275686,127.1340437,2211,2680,Y,서울특별시 송파구청,2021-09-14
거여1동현대1차아파트,거여1동현대1차아파트,"서울특별시 송파구 오금로54길 10 (거여동, 현대아파트)",,37.49361482,127.1410695,5573,6755,Y,서울특별시 송파구청,2021-09-14
대신빌딩,대신빌딩,"서울특별시 송파구 백제고분로 364 (석촌동, 대준빌딩)",,37.50459255,127.1068446,1980,2400,Y,서울특별시 송파구청,2021-09-14
아남아파트,아남아파트,"서울특별시 송파구 마천로35길 18 (마천동, 마천동아남아파트)",,37.5004636,127.1460719,2611,3164,Y,서울특별시 송파구청,2021-09-14
거여2동주민센터,거여2동주민센터,"서울특별시 송파구 거마로2길 19 (거여동, 거여2동주민센터)",,37.49353933,127.1468274,400,484,Y,서울특별시 송파구청,2021-09-14
현대2차아파트 201동 지하주차장,현대2차아파트 201동 지하주차장,"서울특별시 송파구 오금로61길 20 (거여동, 현대아파트)",,37.49475788,127.1465177,1400,1696,Y,서울특별시 송파구청,2021-09-14
수협중앙회,수협중앙회,"서울특별시 송파구 오금로 62 (신천동, 수협중앙회빌딩)",,37.51638252,127.1054768,4292,5202,Y,서울특별시 송파구청,2021-09-14
가락한신아파트,가락한신아파트,"서울특별시 송파구 송파대로 220 (가락동, 가락한신아파트)",,37.48987023,127.1216273,2739,3320,Y,서울특별시 송파구청,2021-09-14
문정1차현대아파트 지하주차장,문정1차현대아파트 지하주차장,"서울특별시 송파구 송파대로20길 28 (문정동, 문정현대아파트)",,37.48569592,127.1258764,2970,3600,Y,서울특별시 송파구청,2021-09-14
태문빌딩,태문빌딩,"서울특별시 송파구 백제고분로 365 (석촌동, 태문빌딩)",,37.50526699,127.1062981,2247,2723,Y,서울특별시 송파구청,2021-09-14
백암빌딩,백암빌딩,"서울특별시 송파구 중대로 150 (가락동, 백암빌딩)",,37.49549685,127.124382,512,620,Y,서울특별시 송파구청,2021-09-14
"송파구의회,구민회관 지하주차장","송파구의회,구민회관 지하주차장","서울특별시 송파구 백제고분로 242 (삼전동, 송파구의회및구민회관)",,37.50235857,127.0934919,2970,3600,Y,서울특별시 송파구청,2021-09-14
서울아산병원 동관 지하주차장,서울아산병원 동관 지하주차장,"서울특별시 송파구 올림픽로43길 88 (풍납동, 서울아산병원)",,37.5251582,127.1095256,48576,58800,Y,서울특별시 송파구청,2021-09-14
동아한가람아파트 지하주차장,동아한가람아파트 지하주차장,서울특별시 송파구 한가람로 448 (풍납동),,37.53750369,127.1152281,3097,3753,Y,서울특별시 송파구청,2021-09-14
동아상가 지하,동아상가 지하,"서울특별시 송파구 한가람로16길 7 (풍납동, 동아한가람아파트)",,37.53704917,127.1156574,660,800,Y,서울특별시 송파구청,2021-09-14
기영아파트,기영아파트,"서울특별시 송파구 마천로51길 27 (마천동, 기영아파트)",,37.49736323,127.1524982,653,791,Y,서울특별시 송파구청,2021-09-14
웅산빌딩,웅산빌딩,서울특별시 송파구 백제고분로 463 (방이동),,37.51190341,127.1125511,640,775,Y,서울특별시 송파구청,2021-09-14
장지동주민센터 지하,장지동주민센터 지하,"서울특별시 송파구 새말로19길 6 (문정동, 장지동주민센터)",,37.48696457,127.1324366,330,400,Y,서울특별시 송파구청,2021-09-14
두암빌딩,두암빌딩,"서울특별시 송파구 백제고분로 359 (석촌동, 두암빌딩)",,37.50509435,127.1059088,1782,2160,Y,서울특별시 송파구청,2021-09-14
5호선 올림픽공원역,5호선 올림픽공원역,"서울특별시 송파구 양재대로 지하 1233 (방이동, 올림픽공원역)",,37.51677475,127.131254,7689,9320,Y,서울특별시 송파구청,2021-09-14
마천역,마천역,"서울특별시 송파구 마천로57길 지하 7 (마천동, 마천역)",,37.49467125,127.1523208,5990,7260,Y,서울특별시 송파구청,2021-09-14
문정현대2차아파트 지하주차장,문정현대2차아파트 지하주차장,"서울특별시 송파구 송파대로16길 12 (문정동, 현대2차아파트)",,37.48418716,127.1246166,2690,3260,Y,서울특별시 송파구청,2021-09-14
8호선 송파역,8호선 송파역,서울특별시 송파구 송파대로 지하 354 (가락동),,37.49968613,127.1121799,4752,5760,Y,서울특별시 송파구청,2021-09-14
시그마타워,시그마타워,"서울특별시 송파구 올림픽로 289 (신천동, 잠실시그마타워)",,37.51461555,127.1025244,11343,13749,Y,서울특별시 송파구청,2021-09-14
월드타워,월드타워,"서울특별시 송파구 송파대로 558 (신천동, 월드타워빌딩)",,37.51509368,127.0997108,10285,12466,Y,서울특별시 송파구청,2021-09-14
현대타워,현대타워,"서울특별시 송파구 올림픽로 293-19 (신천동, 현대타워아파트)",,37.51512375,127.1024799,9509,11526,Y,서울특별시 송파구청,2021-09-14
8호선 잠실역,8호선 잠실역,"서울특별시 송파구 올림픽로 305 (신천동, 잠실역8호선)",,37.51497807,127.1042171,2558,3100,Y,서울특별시 송파구청,2021-09-14
마천삼익아파트,마천삼익아파트,"서울특별시 송파구 성내천로 236 (마천동, 마천동삼익아파트)",,37.49900519,127.1536324,4101,4970,Y,서울특별시 송파구청,2021-09-14
건영아파트 지하주차장,건영아파트 지하주차장,"서울특별시 송파구 새말로8길 12 (문정동, 건영아파트)",,37.48135315,127.1257877,2158,2615,Y,서울특별시 송파구청,2021-09-14
송파2동 현대아파트,송파2동 현대아파트,"서울특별시 송파구 오금로32길 42, 지층 (송파동, 현대아파트)",,37.50336407,127.1176999,9900,12000,Y,서울특별시 송파구청,2021-09-14
현대그린빌아파트,현대그린빌아파트,"서울특별시 송파구 마천로 315 (마천동, 현대그린빌)",,37.49516673,127.1509739,8633,10464,Y,서울특별시 송파구청,2021-09-14
마천금호아파트,마천금호아파트,"서울특별시 송파구 마천로57길 16 (마천동, 마천금호아파트)",,37.49468791,127.1533703,455,551,Y,서울특별시 송파구청,2021-09-14
8호선 문정역,8호선 문정역,서울특별시 송파구 송파대로 지하 179 (문정동),,37.48626191,127.1222908,6600,8000,Y,서울특별시 송파구청,2021-09-14
문정동아아파트 지하주차장,문정동아아파트 지하주차장,"서울특별시 송파구 문정로5길 13 (문정동, 문정동아아파트)",,37.48765368,127.1285029,1650,2000,Y,서울특별시 송파구청,2021-09-14
한보아파트,한보아파트,"서울특별시 송파구 마천로51길 25 (마천동, 한보아파트)",,37.49734599,127.1518875,1267,1535,Y,서울특별시 송파구청,2021-09-14
우성2차아파트 지하주차장,우성2차아파트 지하주차장,"서울특별시 송파구 중대로12길 35 (가락동, 가락우성2차아파트)",,37.49201421,127.1254709,660,800,Y,서울특별시 송파구청,2021-09-14
가락금호아파트 지하주차장,가락금호아파트 지하주차장,"서울특별시 송파구 송파대로32길 15 (가락동, 가락금호아파트)",,37.49658322,127.1157578,3940,4775,Y,서울특별시 송파구청,2021-09-14
8호선 장지역,8호선 장지역,"서울특별시 송파구 송파대로 지하 82 (장지동, 장지역)",,37.47811966,127.1264244,5363,6500,Y,서울특별시 송파구청,2021-09-14
잠실역 환승주차장,잠실역 환승주차장,서울특별시 송파구 올림픽로 305 (신천동),,37.51497807,127.1042171,4508,5464,Y,서울특별시 송파구청,2021-09-14
거여1단지아파트,거여1단지아파트,"서울특별시 송파구 양산로8길 4 (거여동, 거여1단지아파트)",,37.49181612,127.1442956,5200,6303,Y,서울특별시 송파구청,2021-09-14
거여2단지아파트,거여2단지아파트,서울특별시 송파구 양산로8길 24 (거여동),,37.48964721,127.1466434,3200,3878,Y,서울특별시 송파구청,2021-09-14
거여4단지아파트,거여4단지아파트,서울특별시 송파구 양산로4길 8 (거여동),,37.48958633,127.1433913,7032,8523,Y,서울특별시 송파구청,2021-09-14
거여5단지아파트,거여5단지아파트,서울특별시 송파구 양산로4길 16 (거여동),,37.48920959,127.1449645,2396,2904,Y,서울특별시 송파구청,2021-09-14
거여6단지아파트,거여6단지아파트,서울특별시 송파구 양산로2길 38 (거여동),,37.48846565,127.1461888,2614,3168,Y,서울특별시 송파구청,2021-09-14
문정1차푸르지오아파트 지하주차장,문정1차푸르지오아파트 지하주차장,"서울특별시 송파구 문정로 55 (문정동, 문정푸르지오아파트)",,37.48677892,127.1275697,7930,9612,Y,서울특별시 송파구청,2021-09-14
천호역승강장,천호역승강장,"서울특별시 강동구 천호대로 지하 997 (천호동, 천호역)",,37.53857988,127.123743,990,1200,Y,서울특별시 송파구청,2021-09-14
가락2차 쌍용아파트 지하주차장,가락2차 쌍용아파트 지하주차장,"서울특별시 송파구 송이로15길 33 (가락동, 가락2차쌍용아파트)",,37.50115698,127.1226543,1948,2361,Y,서울특별시 송파구청,2021-09-14
석촌역,석촌역,"서울특별시 송파구 송파대로 지하 439 (석촌동, 석촌역)",,37.50594811,127.1063443,4736,5740,Y,서울특별시 송파구청,2021-09-14
5호선 방이역,5호선 방이역,서울특별시 송파구 양재대로 지하 1127 (방이동),,37.50855626,127.1258559,4785,5800,Y,서울특별시 송파구청,2021-09-14
거여1동주민센터,거여1동주민센터,"서울특별시 송파구 오금로53길 32 (거여동, 거여1동주민센터)",,37.49693865,127.1433058,264,320,Y,서울특별시 송파구청,2021-09-14
거여1동 현대3차아파트,거여1동 현대3차아파트,"서울특별시 송파구 거마로 43 (거여동, 현대3차아파트)",,37.49686367,127.1456714,1980,2400,Y,서울특별시 송파구청,2021-09-14
거여역,거여역,"서울특별시 송파구 오금로 지하 499 (거여동, 거여역)",,37.4932076,127.1440314,7388,8955,Y,서울특별시 송파구청,2021-09-14
성영아파트 지하주차장,성영아파트 지하주차장,"서울특별시 송파구 마천로35길 6 (마천동, 성영아파트)",,37.49970788,127.1451612,1868,2264,Y,서울특별시 송파구청,2021-09-14
남양빌딩 지하주차장,남양빌딩 지하주차장,"서울특별시 송파구 백제고분로 232 (삼전동, 남양빌딩)",,37.50288224,127.0921082,1095,1327,Y,서울특별시 송파구청,2021-09-14
문정푸르지오2차아파트 지하주차장,문정푸르지오2차아파트 지하주차장,"서울특별시 송파구 송이로32길 37 (문정동, 문정푸르지오아파트)",,37.48700275,127.1272083,3960,4800,Y,서울특별시 송파구청,2021-09-14
마천금호어울림1차아파트 지하주차장,마천금호어울림1차아파트 지하주차장,"서울특별시 송파구 성내천로21길 12 (마천동, 신동아아파트)",,37.50043279,127.1447465,4649,5635,Y,서울특별시 송파구청,2021-09-14
올림픽 선수 기자촌 아파트 지하주차장,올림픽 선수 기자촌 아파트 지하주차장,"서울특별시 송파구 중대로25길 5 (오금동, 오금동주민센터)",,37.50298927,127.1280813,264,320,Y,서울특별시 송파구청,2021-09-14
오금역,오금역,"서울특별시 송파구 오금로 지하 321 (오금동, 오금역)",,37.50226508,127.1278811,7781,9431,Y,서울특별시 송파구청,2021-09-14
개롱역,개롱역,"서울특별시 송파구 오금로 지하 402 (오금동, 오금역)",,37.49781321,127.1351607,7167,8687,Y,서울특별시 송파구청,2021-09-14
보인고등학교,보인고등학교,"서울특별시 송파구 오금로49길 18 (오금동, 보인중고등학교)",,37.49757028,127.1395164,547,663,Y,서울특별시 송파구청,2021-09-14
현대아파트 중앙아케이드 상가,현대아파트 중앙아케이드 상가,"서울특별시 송파구 오금로35길 17 (오금동, 현대아파트)",,37.50639584,127.1273633,12870,15600,Y,서울특별시 송파구청,2021-09-14
송파도서관,송파도서관,"서울특별시 송파구 동남로 263 (오금동, 송파도서관)",,37.499994,127.1348525,544,659,Y,서울특별시 송파구청,2021-09-14
서울곰두리체육센터,서울곰두리체육센터,"서울특별시 송파구 동남로 271 (오금동, 서울곰두리체육센터)",,37.50049066,127.1354551,858,1040,Y,서울특별시 송파구청,2021-09-14
8호선 몽촌토성역,8호선 몽촌토성역,"서울특별시 송파구 올림픽로 지하 383 (신천동, 몽촌토성역)",,37.51762309,127.1124284,10160,12315,Y,서울특별시 송파구청,2021-09-14
올림픽베어스타운,올림픽베어스타운,"서울특별시 송파구 위례성대로 58 (방이동, 올림픽베어스타운)",,37.51476216,127.1191204,3520,4266,Y,서울특별시 송파구청,2021-09-14
마천금호어울림1차아파트 지하주차장,마천금호어울림1차아파트 지하주차장,"서울특별시 송파구 성내천로 245(마천동, 마천금호어울림1차아파트 지하주차장)",,37.4986437,127.154464,7613,9227,Y,서울특별시 송파구청,2021-09-14
우방아파트 지하주차장,우방아파트 지하주차장,"서울특별시 송파구 성내천로 211 (마천동, 우방아파트)",,37.50002356,127.1520603,8655,10490,Y,서울특별시 송파구청,2021-09-14
영빌딩 지하주차장,영빌딩 지하주차장,"서울특별시 송파구 송파대로 422 (송파동, 영빌딩)",,37.50500237,127.1079897,696,843,Y,서울특별시 송파구청,2021-09-14
호수임광아파트 지하주차장,호수임광아파트 지하주차장,"서울특별시 송파구 송파대로48길 29 (송파동, 호수임광아파트)",,37.5103443,127.1071378,2343,2840,Y,서울특별시 송파구청,2021-09-14
황제빌딩 지하주차장,황제빌딩 지하주차장,서울특별시 송파구 백제고분로 393 (송파동),,37.50675304,127.1089468,396,480,Y,서울특별시 송파구청,2021-09-14
동원빌딩 지하 서울구국기도원,동원빌딩 지하 서울구국기도원,"서울특별시 송파구 가락로 151 (송파동, 동원빌딩)",,37.50300189,127.112117,1326,1607,Y,서울특별시 송파구청,2021-09-14
송파여성문화회관 지하주차장,송파여성문화회관 지하주차장,"서울특별시 송파구 백제고분로42길 5 (송파동, 송파여성문화회관)",,37.5059306,127.1097327,10926,13243,Y,서울특별시 송파구청,2021-09-14
올림픽 프라자 상가 지하,올림픽 프라자 상가 지하,"서울특별시 송파구 양재대로 1222 (방이동, 올림픽프라자)",,37.5157262,127.1310621,5880,7127,Y,서울특별시 송파구청,2021-09-14
올림픽 선수 기자촌 아파트 지하주차장,올림픽 선수 기자촌 아파트 지하주차장,"서울특별시 송파구 양재대로 1218 (방이동, 올림픽선수기자촌아파트 지하주차장)",,37.51669171,127.1377105,21938,26591,Y,서울특별시 송파구청,2021-09-14
씨티극동아파트 지하주차장,씨티극동아파트 지하주차장,"서울특별시 송파구 한가람로 478 (풍납동, 씨티극동아파트)",,37.53973553,127.1179064,6569,7962,Y,서울특별시 송파구청,2021-09-14
레이크팰리스아파트 지하주차장,레이크팰리스아파트 지하주차장,"서울특별시 송파구 잠실로 88 (잠실동, 레이크팰리스)",,37.50753416,127.0932133,13136,15922,Y,서울특별시 송파구청,2021-09-14
트리지움아파트 지하주차장,트리지움아파트 지하주차장,"서울특별시 송파구 잠실로 62 (잠실동, 트리지움)",,37.5080014,127.0902235,18182,22038,Y,서울특별시 송파구청,2021-09-14
갤러리아팰리스아파트 지하주차장,갤러리아팰리스아파트 지하주차장,"서울특별시 송파구 올림픽로 212 (잠실동, 갤러리아팰리스)",,37.5106905,127.094199,3758,4555,Y,서울특별시 송파구청,2021-09-14
신구블레스 밸리아파트,신구블레스 밸리아파트,"서울특별시 송파구 위례성대로12길 25 (방이동, 신구블레스밸리아파트)",,37.51126984,127.1226709,6617,8020,Y,서울특별시 송파구청,2021-09-14
옥산크리스탈아파트,옥산크리스탈아파트,"서울특별시 송파구 위례성대로14길 11 (방이동, 옥산크리스탈아파트)",,37.51221314,127.1235773,2343,2840,Y,서울특별시 송파구청,2021-09-14
한솔아파트 지하주차장,한솔아파트 지하주차장,"서울특별시 송파구 백제고분로 348 (석촌동, 잠실한솔아파트)",,37.50408224,127.1052198,1556,1886,Y,서울특별시 송파구청,2021-09-14
어울림아파트,어울림아파트,"서울특별시 송파구 오금로56길 28 (거여동, 어울림아파트)",,37.4923654,127.1430935,6507,7887,Y,서울특별시 송파구청,2021-09-14
송파노인종합복지관 지하 대강당,송파노인종합복지관 지하 대강당,"서울특별시 송파구 백제고분로32길 41 (삼전동, 송파노인종합복지관 지하대강당)",,37.49866693,127.0948941,1644,1992,Y,서울특별시 송파구청,2021-09-14
가락 ID 타워,가락 ID 타워,"서울특별시 송파구 중대로 105 (가락동, 가락 ID TOWER)",,37.49358759,127.1200547,4622,5602,Y,서울특별시 송파구청,2021-09-14
가락 스타클래스,가락 스타클래스,"서울특별시 송파구 오금로 306 (가락동, 가락스타클래스)",,37.50287606,127.1261133,4070,4933,Y,서울특별시 송파구청,2021-09-14
송파동부센트레빌 아파트 지하주차장,송파동부센트레빌 아파트 지하주차장,"서울특별시 송파구 송파대로37길 29 (가락동, 송파 동부센트레빌)",,37.5003995,127.1085711,6973,8452,Y,서울특별시 송파구청,2021-09-14
가락쌍용1차아파트,가락쌍용1차아파트,"서울특별시 송파구 동남로 193 (가락동, 가락쌍용아파트)",,37.49469877,127.1292251,8177,9911,Y,서울특별시 송파구청,2021-09-14
잠실교회 별관,잠실교회 별관,"서울특별시 송파구 동남로16길 5 (가락동, 잠실교회 제2성전)",,37.4945558,127.1314096,3056,3704,Y,서울특별시 송파구청,2021-09-14
문정래미안아파트 지하주차장,문정래미안아파트 지하주차장,"서울특별시 송파구 문정로 83 (문정동, 문정래미안아파트)",,37.48920513,127.1302333,6716,8140,Y,서울특별시 송파구청,2021-09-14
문정프라자 지하주차장,문정프라자 지하주차장,"서울특별시 송파구 중대로 80 (문정동, 문정프라자)",,37.49176258,127.1178445,37360,45284,Y,서울특별시 송파구청,2021-09-14
세계로교회,세계로교회,"서울특별시 송파구 마천로61바길 31-1 (마천동, 마천중앙교회)",,37.49627162,127.1521794,2992,3626,Y,서울특별시 송파구청,2021-09-14
엘스아파트 지하주차장,엘스아파트 지하주차장,"서울특별시 송파구 올림픽로 99 (잠실동, 잠실엘스)",,37.51512435,127.078129,22485,27254,Y,서울특별시 송파구청,2021-09-14
리센츠아파트 지하주차장,리센츠아파트 지하주차장,"서울특별시 송파구 올림픽로 135 (잠실동, 리센츠)",,37.51673418,127.0898901,22026,26698,Y,서울특별시 송파구청,2021-09-14
석촌씨티빌딩,석촌씨티빌딩,"서울특별시 송파구 오금로 113 (방이동, 석촌씨티빌딩)",,37.51217021,127.1085836,2513,3046,Y,서울특별시 송파구청,2021-09-14
방이1동주민센터 지하1층,방이1동주민센터 지하1층,"서울특별시 송파구 위례성대로16길 22 (방이동, 방이1동주민센터)",,37.51097662,127.1239055,315,381,Y,서울특별시 송파구청,2021-09-14
송파1동주민센터 지하 다목적실,송파1동주민센터 지하 다목적실,"서울특별시 송파구 백제고분로 392 (송파동, 송파1동주민센터)",,37.50626256,127.1093125,403,488,Y,서울특별시 송파구청,2021-09-14
파크리오아파트,파크리오아파트,"서울특별시 송파구 올림픽로 435 (신천동, 파크리오)",,37.52136011,127.1049725,27181,32946,Y,서울특별시 송파구청,2021-09-14
삼전종합사회복지관 지하 강당,삼전종합사회복지관 지하 강당,"서울특별시 송파구 백제고분로32길 35 (삼전동, 삼전종합사회복지관 지하 강당)",,37.49923267,127.0950079,150,181,Y,서울특별시 송파구청,2021-09-14
배명고등학교 체육관 지하,배명고등학교 체육관 지하,"서울특별시 송파구 삼학사로 11 (삼전동, 배명중고등학교)",,37.4976895,127.0958111,1916,2322,Y,서울특별시 송파구청,2021-09-14
경찰병원역,경찰병원역,"서울특별시 송파구 중대로 지하 149 (가락동, 경찰병원역)",,37.4956017,127.1240656,9705,11763,Y,서울특별시 송파구청,2021-09-14
문정근린공원 공영주차장,문정근린공원 공영주차장,서울특별시 송파구 문정로 지하 12 (문정동),,37.48595029,127.1238958,9835,11921,Y,서울특별시 송파구청,2021-09-14
방이코오롱아파트,방이코오롱아파트,"서울특별시 송파구 오금로31길 28 (방이동, 코오롱아파트)",,37.50888593,127.1242504,4559,5526,Y,서울특별시 송파구청,2021-09-14
가락시장역,가락시장역,서울특별시 송파구 송파대로 지하 257 (가락동),,37.49274223,127.1184838,25687,31135,Y,서울특별시 송파구청,2021-09-14
산림조합중앙회 지하 주차장,산림조합중앙회 지하 주차장,"서울특별시 송파구 석촌호수로 166 (삼전동, 산림조합중앙회)",,37.50659902,127.0953429,1958,2373,Y,서울특별시 송파구청,2021-09-14
신원빌딩 지하주차장,신원빌딩 지하주차장,"서울특별시 송파구 석촌호수로 130 (삼전동, 신원빌딩)",,37.50719681,127.0913852,398,482,Y,서울특별시 송파구청,2021-09-14
송파파크데일1단지,송파파크데일1단지,"서울특별시 송파구 성내천로37길 37 (마천동, 송파파크데일1단지)",,37.49878666,127.1581012,3216,3898,Y,서울특별시 송파구청,2021-09-14
송파파크데일2단지,송파파크데일2단지,"서울특별시 송파구 성내천로47길 38 (마천동, 송파파크데일2단지)",,37.49633944,127.1581639,3520,4266,Y,서울특별시 송파구청,2021-09-14
가든파이브 라이프관,가든파이브 라이프관,"서울특별시 송파구 충민로 66 (문정동, 가든파이브라이프)",,37.47761304,127.1249629,37700,45696,Y,서울특별시 송파구청,2021-09-14
위례송파푸르지오 지하주차장,위례송파푸르지오 지하주차장,"서울특별시 송파구 위례광장로 185 (장지동, 위례신도시송파푸르지오 지하주차장)",,37.48020939,127.13976,2174,2635,Y,서울특별시 송파구청,2021-09-14
위례22단지 지하주차장,위례22단지 지하주차장,"서울특별시 송파구 위례광장로 163 (장지동, 위례22단지)",,37.4796693,127.1393248,4510,5466,Y,서울특별시 송파구청,2021-09-14
위례24단지 지하주차장,위례24단지 지하주차장,"서울특별시 송파구 위례광장로 121 (장지동, 위례24단지)",,37.47686666,127.1382162,7168,8688,Y,서울특별시 송파구청,2021-09-14
서울동부지방법원,서울동부지방법원,"서울특별시 송파구 법원로 101, 서울동부지방법원 (문정동)",,37.48349301,127.1197536,1651,2001,Y,서울특별시 송파구청,2021-09-14
위례동주민센터 지하주차장,위례동주민센터 지하주차장,"서울특별시 송파구 위례광장로 210 (장지동, 위례동주민센터송파위례도서관 지하주차장)",,37.48116665,127.143936,394,477,Y,서울특별시 송파구청,2021-09-14
9호선 삼전역,9호선 삼전역,"서울특별시 송파구 백제고분로 지하 189 (잠실동, 삼전역)",,37.50432331,127.0880838,8644,10477,Y,서울특별시 송파구청,2021-09-14
석촌고분역,석촌고분역,"서울특별시 송파구 백제고분로 지하 274 (삼전동, 석촌고분역)",,37.50246395,127.0968848,6841,8292,Y,서울특별시 송파구청,2021-09-14
한성백제역,한성백제역,"서울특별시 송파구 위례성대로 지하 29 (방이동, 한성백제역)",,37.5163401,127.116114,8969,10871,Y,서울특별시 송파구청,2021-09-14
송파나루역,송파나루역,"서울특별시 송파구 백제고분로 지하 446 (방이동, 송파나루역)",,37.51035038,127.112232,7833,9494,Y,서울특별시 송파구청,2021-09-14
헬리오시티 지하주차장,헬리오시티 지하주차장,"서울특별시 송파구 송파대로 345, 103동 (가락동, 헬리오시티)",,37.49761178,127.1025328,507732,615432,Y,서울특별시 송파구청,2021-09-14
